City_ID,City,Lat,Lng,Max Temp,Humidity,Cloudiness,Wind Speed,Country,Date
0,guerrero negro,27.9769,-114.0611,18.4,57,100,8.75,MX,1709754328
1,avarua,-21.2078,-159.775,28.03,78,40,6.17,CK,1709754329
2,grytviken,-54.2811,-36.5092,7.08,57,100,1.06,GS,1709754329
3,college,64.8569,-147.8028,-6.63,71,75,2.57,US,1709753747
4,metlili chaamba,32.2667,3.6333,17.52,32,0,2.57,DZ,1709754330
5,bilibino,68.0546,166.4372,-32.51,100,88,0.97,RU,1709753732
6,prince rupert,54.3161,-130.3201,2.05,60,75,14.92,CA,1709753576
7,san antonio de pale,-1.4014,5.6325,28.33,79,95,4.3,GQ,1709753735
8,aasiaat,68.7098,-52.8699,-16.09,94,100,1.88,GL,1709754331
9,mount pearl,47.5166,-52.7813,5.25,96,100,6.17,CA,1709754331
10,douentza,14.9951,-2.9517,29.03,10,30,3.78,ML,1709754331
11,uturoa,-16.7333,-151.4333,27.59,80,100,4.04,PF,1709754332
12,adamstown,-25.066,-130.1015,24.24,73,78,6.15,PN,1709754332
13,portland,45.5234,-122.6762,8.33,75,7,1.79,US,1709753629
14,atafu village,-8.5421,-172.5159,28.87,74,45,3.75,TK,1709754333
15,puerto san jose,13.9256,-90.8244,30.32,60,7,6.42,GT,1709754333
16,enewetak,11.3474,162.3373,26.25,75,79,9.49,MH,1709754333
17,puerto natales,-51.7236,-72.4875,13.25,50,40,4.63,CL,1709754333
18,port-aux-francais,-49.35,70.2167,6.97,84,100,8.13,TF,1709754334
19,rio gallegos,-51.6226,-69.2181,14.03,47,20,10.29,AR,1709754335
20,savannakhet,16.566,104.751,25.42,37,31,2.51,LA,1709754335
21,tan-tan,28.438,-11.1032,16.22,82,99,5.65,MA,1709754335
22,punta arenas,-53.15,-70.9167,14.01,62,40,5.14,CL,1709754336
23,yuzhno-kurilsk,44.0306,145.8556,-5.35,81,5,3.87,RU,1709754336
24,taro,-8.3862,115.28,23.0,95,98,0.62,ID,1709754336
25,kayangel,8.0823,134.7173,27.64,64,78,4.32,PW,1709754336
26,yangambi,0.8102,24.4336,25.57,59,53,1.38,CD,1709754337
27,waitangi,-43.9535,-176.5597,12.12,82,98,3.25,NZ,1709754337
28,yellowknife,62.456,-114.3525,-13.1,90,75,3.09,CA,1709754337
29,marka,1.7159,44.7717,27.53,78,5,5.01,SO,1709754337
30,aykhal,66.0,111.5,-21.91,100,100,3.55,RU,1709754338
31,quatis,-22.4072,-44.2581,23.47,95,95,2.06,BR,1709754338
32,northam,51.0333,-4.2167,8.12,83,29,6.54,GB,1709754338
33,manta,-0.95,-80.7333,29.88,89,40,4.92,EC,1709754338
34,carnarvon,-24.8667,113.6333,30.56,57,35,5.72,AU,1709754338
35,badger,64.8,-147.5333,-6.27,78,75,2.57,US,1709754339
36,constantia,44.1833,28.65,4.38,72,100,0.74,RO,1709754339
37,indramayu,-6.3264,108.32,27.23,86,100,2.95,ID,1709754339
38,blackmans bay,-43.0167,147.3167,13.18,62,98,0.45,AU,1709754340
39,port mathurin,-19.6833,63.4167,26.43,75,52,10.07,MU,1709754340
40,ilha de mocambique,-15.0342,40.7358,27.25,89,99,5.87,MZ,1709754340
41,tual,-5.6667,132.75,29.06,76,71,2.26,ID,1709754340
42,wailua homesteads,22.0669,-159.378,25.24,65,0,10.29,US,1709754340
43,puerto ayora,-0.7393,-90.3518,29.98,89,76,2.68,EC,1709754341
44,anak,38.5108,125.4942,2.08,50,100,0.26,KP,1709754341
45,illizi,26.4833,8.4667,21.89,14,36,5.1,DZ,1709754341
46,dhalie,13.6957,44.7314,20.22,63,18,1.16,YE,1709754342
47,iqaluit,63.7506,-68.5145,-24.06,52,20,6.71,CA,1709754342
48,gotsucho,35.0,132.2167,5.23,78,100,4.94,JP,1709754342
49,edinburgh of the seven seas,-37.0676,-12.3116,18.76,95,98,3.96,SH,1709754342
50,kisii,-0.6817,34.7667,16.39,91,76,1.73,KE,1709754343
51,lebu,-37.6167,-73.65,14.61,67,100,7.7,CL,1709754343
52,bikenibeu village,1.3673,173.1241,27.98,89,75,3.6,KI,1709754343
53,rabaul,-4.1967,152.1721,25.76,91,100,4.26,PG,1709754343
54,bredasdorp,-34.5322,20.0403,17.71,72,91,2.69,ZA,1709754344
55,pisco,-13.7,-76.2167,28.03,61,0,5.14,PE,1709754344
56,fremantle,-32.05,115.7667,24.05,64,0,6.69,AU,1709754344
57,queenstown,-31.8976,26.8753,13.08,92,9,2.67,ZA,1709754345
58,ushuaia,-54.8,-68.3,8.81,87,100,2.57,AR,1709754345
59,yashan,22.1975,109.9419,17.03,68,100,3.99,CN,1709754345
60,tsiombe,-25.3,45.4833,23.68,97,100,2.8,MG,1709754345
61,banda aceh,5.5577,95.3222,26.7,80,89,2.47,ID,1709754330
62,mount isa,-20.7333,139.5,25.87,69,100,2.06,AU,1709754346
63,georgetown,5.4112,100.3354,28.96,88,40,2.68,MY,1709754164
64,tiksi,71.6872,128.8694,-28.49,100,95,1.28,RU,1709754346
65,novyy urgal,51.0736,132.5642,-27.52,100,88,0.79,RU,1709754347
66,ebaye,8.7748,167.7392,27.01,69,0,8.23,MH,1709754347
67,zelenokumsk,44.4069,43.8806,4.07,71,100,4.06,RU,1709754244
68,keflavik,64.0049,-22.5624,7.24,87,75,7.72,IS,1709754347
69,harper,4.375,-7.7169,27.57,87,0,4.22,LR,1709754347
70,vilyuchinsk,52.9306,158.4028,-12.82,87,25,3.95,RU,1709754348
71,vorgashor,67.5833,63.95,-18.32,97,100,6.43,RU,1709754348
72,olonkinbyen,70.9221,-8.7187,0.91,95,100,6.62,SJ,1709754348
73,sitka,57.0531,-135.33,2.94,60,75,8.23,US,1709754348
74,souillac,-20.5167,57.5167,26.21,78,75,6.17,MU,1709754349
75,kamaishi,39.2667,141.8833,-1.51,82,39,3.03,JP,1709754349
76,isafjordur,66.0755,-23.124,3.63,76,100,4.01,IS,1709754349
77,kaoma,-14.7833,24.8,21.88,69,100,1.64,ZM,1709754350
78,invercargill,-46.4,168.35,13.34,82,31,4.47,NZ,1709754350
79,khovd,48.0056,91.6419,-11.4,67,2,1.16,MN,1709754350
80,mwene-ditu,-7.0,23.45,20.48,91,11,1.04,CD,1709754351
81,tukrah,32.5341,20.5791,14.17,75,69,4.39,LY,1709754352
82,kruisfontein,-34.0033,24.7314,18.82,91,46,1.72,ZA,1709754352
83,trujillo,-8.116,-79.03,23.98,83,0,4.12,PE,1709754352
84,kaihua,23.3687,104.28,12.44,97,9,1.89,CN,1709754352
85,kedougou,12.5579,-12.1743,38.32,20,0,1.03,SN,1709754353
86,hawaiian paradise park,19.5933,-154.9731,21.73,94,100,2.57,US,1709754353
87,ta`u,-14.2336,-169.5144,28.03,75,96,4.13,AS,1709754353
88,lihue,21.9789,-159.3672,25.58,65,0,10.29,US,1709754353
89,belozersk,60.0326,37.7957,-5.01,99,98,1.79,RU,1709754353
90,mangrol,21.1167,70.1167,22.65,39,56,6.35,IN,1709754354
91,ilulissat,69.2167,-51.1,-11.99,85,75,2.06,GL,1709754354
92,hotan,37.0997,79.9269,4.8,40,96,3.89,CN,1709754354
93,longyearbyen,78.2186,15.6401,-6.09,68,40,3.6,SJ,1709754355
94,stanley,54.868,-1.6985,5.4,92,75,3.09,GB,1709754355
95,reggane,26.7158,0.1714,21.71,16,5,4.62,DZ,1709754355
96,aswan,24.0934,32.907,24.61,14,0,1.54,EG,1709754355
97,afaahiti,-17.75,-149.2833,28.93,80,100,5.38,PF,1709754356
98,punta alta,-38.8759,-62.0736,27.16,46,98,2.36,AR,1709754356
99,tura,25.5198,90.2201,15.2,25,0,1.95,IN,1709754356
100,uttar char fasson,22.2332,90.7132,22.12,36,2,3.34,BD,1709754357
101,laguna beach,33.5423,-117.7831,20.06,66,75,5.66,US,1709754357
102,iskateley,67.6803,53.1512,-4.99,95,100,5.36,RU,1709754357
103,paita,-5.0892,-81.1144,27.56,64,17,6.09,PE,1709754357
104,khark,29.2614,50.3306,18.88,63,0,3.83,IR,1709754358
105,shache,38.4167,77.2406,5.17,40,100,2.36,CN,1709754358
106,ladik,40.9106,35.8919,4.49,79,100,2.29,TR,1709754358
107,sisimiut,66.9395,-53.6735,-15.02,90,100,4.42,GL,1709754358
108,awjilah,29.1081,21.2869,16.07,52,0,4.98,LY,1709754359
109,lazaro cardenas,17.9583,-102.2,27.48,57,0,4.36,MX,1709754359
110,acarau,-2.8856,-40.12,27.45,82,100,5.04,BR,1709754359
111,mejit,10.2753,170.8646,26.5,80,100,10.68,MH,1709754359
112,havre,49.5833,0.3333,7.22,87,48,2.57,FR,1709754360
113,utrik,11.2278,169.8474,26.34,79,68,10.27,MH,1709754360
114,ramos arizpe,25.55,-100.9667,24.35,31,75,2.57,MX,1709754360
115,shohimardon,39.9839,71.8028,-1.57,67,100,2.35,UZ,1709754360
116,bethel,41.3712,-73.414,11.47,87,75,1.54,US,1709754360
117,sur,22.5667,59.5289,24.28,75,0,0.74,OM,1709754361
118,el eulma,36.1528,5.6902,8.34,64,12,2.66,DZ,1709754361
119,chonchi,-42.6128,-73.8092,14.56,52,87,0.4,CL,1709754361
120,forest,37.3638,-79.2897,15.58,94,100,3.6,US,1709754362
121,thompson,55.7435,-97.8558,-11.91,52,20,0.0,CA,1709754362
122,mata-utu,-13.2816,-176.1745,28.88,75,21,5.91,WF,1709754362
123,vargashi,55.3556,65.8467,-17.32,100,98,1.77,RU,1709754363
124,aljezur,37.3191,-8.8033,11.52,73,100,3.4,PT,1709754363
125,gadzhiyevo,69.2551,33.3362,2.11,99,100,9.73,RU,1709754363
126,alfredo chaves,-20.635,-40.7497,25.81,96,100,0.8,BR,1709754363
127,vadso,70.0744,29.7487,3.49,93,75,6.69,NO,1709754364
128,skelleftea,64.7507,20.9528,-3.8,100,100,1.54,SE,1709754364
129,itaguai,-22.8522,-43.7753,28.79,70,75,4.63,BR,1709754364
130,hithadhoo,-0.6,73.0833,28.02,71,100,4.63,MV,1709754365
131,filadelfia,39.9523,-75.1638,11.23,94,100,5.14,US,1709754365
132,cururupu,-1.8283,-44.8683,25.98,93,100,2.19,BR,1709754365
133,mudbidri,13.0833,74.9833,24.79,73,74,1.54,IN,1709754365
134,inari,68.906,27.0288,2.11,92,95,2.15,FI,1709754366
135,sao jose da coroa grande,-8.8978,-35.1478,28.78,73,24,4.03,BR,1709754367
136,kodiak,57.79,-152.4072,0.73,75,0,3.09,US,1709754367
137,kayes,14.0,-11.0,35.24,9,85,2.07,ML,1709754368
138,talnakh,69.4865,88.3972,-13.68,96,100,2.29,RU,1709754368
139,buala,-8.145,159.5921,26.64,86,99,0.66,SB,1709754368
140,cudahy,33.9606,-118.1853,19.67,69,75,4.63,US,1709754368
141,zag,46.9441,99.165,-26.0,83,2,1.66,MN,1709754369
142,alice springs,-23.7,133.8833,25.75,73,40,2.06,AU,1709754370
143,sarikei,2.1167,111.5167,25.61,99,100,0.63,MY,1709754370
144,tomatlan,19.9333,-105.25,32.08,24,4,4.51,MX,1709754304
145,papao,-17.75,-149.55,29.82,78,100,4.86,PF,1709754371
146,goundam,16.4145,-3.6708,26.88,6,15,4.84,ML,1709754371
147,santa cruz,-17.8,-63.1667,33.03,52,75,3.09,BO,1709754223
148,ribeira grande,38.5167,-28.7,13.22,67,75,8.75,PT,1709754371
149,acapulco de juarez,16.8634,-99.8901,28.9,65,0,4.12,MX,1709754372
150,hamilton,39.1834,-84.5333,12.91,93,100,7.2,US,1709754293
151,lompoc,34.6391,-120.4579,15.08,66,100,5.66,US,1709754372
152,mbabane,-26.3167,31.1333,16.53,94,51,1.36,SZ,1709754263
153,dryden,49.7833,-92.7503,-0.84,40,40,4.12,CA,1709754373
154,colares,38.7992,-9.4469,14.63,80,40,13.41,PT,1709754373
155,papatowai,-46.5619,169.4708,13.86,65,49,3.9,NZ,1709754373
156,konarka,19.9,86.1167,25.09,78,9,3.27,IN,1709754374
157,mandera,3.9366,41.867,34.93,29,85,5.14,KE,1709754374
158,new norfolk,-42.7826,147.0587,13.84,82,100,1.34,AU,1709754374
159,mahina,-17.5065,-149.489,29.87,74,40,1.54,PF,1709754375
160,laguna paiva,-31.3039,-60.6589,30.52,48,5,1.34,AR,1709754375
161,jamestown,42.097,-79.2353,9.45,100,100,1.34,US,1709754376
162,colonia,50.9333,6.95,10.54,72,40,2.57,DE,1709754376
163,shihezi,44.3,86.0333,-14.2,93,57,2.34,CN,1709754376
164,namibe,-15.1961,12.1522,23.81,63,71,4.14,AO,1709754377
165,zellingen,49.8978,9.8172,7.45,86,81,4.17,DE,1709754377
166,charters towers,-20.1,146.2667,21.85,89,65,3.72,AU,1709754377
167,bugene,-1.5911,31.1403,14.2,94,47,1.59,TZ,1709754378
168,albany,42.6001,-73.9662,11.05,91,100,0.89,US,1709754091
169,nirmal,19.1,78.35,27.53,23,36,3.63,IN,1709754379
170,zakamensk,50.3741,103.2863,-18.37,98,14,1.54,RU,1709754350
171,mincivan,39.0294,46.7185,12.53,50,100,1.6,AZ,1709754380
172,roma,43.2128,-75.4557,12.07,96,100,2.06,US,1709754382
173,mahibadhoo,3.7833,72.9667,28.04,79,49,6.0,MV,1709754382
174,khandyga,62.6667,135.6,-32.74,100,95,0.63,RU,1709754383
175,kovalam,8.3667,76.9967,29.05,74,40,2.57,IN,1709754383
176,qianzhou,28.3167,109.7167,8.08,85,72,0.94,CN,1709754384
177,erbil,36.1926,44.0106,15.9,44,75,7.2,IQ,1709754126
178,vernon,50.2581,-119.2691,2.91,54,15,1.03,CA,1709754340
179,ust-nera,64.5667,143.2,-25.29,100,99,1.05,RU,1709754384
180,stornoway,58.2093,-6.3865,7.24,80,0,1.54,GB,1709754384
181,tralee,52.2704,-9.7026,10.46,86,100,6.57,IE,1709754385
182,kaa-khem,51.6833,94.7333,-19.22,90,99,1.77,RU,1709754385
183,port-vila,-17.7338,168.3219,26.78,94,100,3.6,VU,1709754385
184,embi,48.8264,58.1442,-13.61,94,100,1.4,KZ,1709754385
185,conde,-7.2597,-34.9075,29.7,74,75,5.14,BR,1709754386
186,qaqortoq,60.7167,-46.0333,-8.09,84,100,0.85,GL,1709754386
187,san luis de la loma,17.2706,-100.8939,29.26,49,0,4.68,MX,1709754386
188,aitape,-3.1374,142.3475,26.09,86,99,2.22,PG,1709754386
189,aginskoye,51.1,114.53,-16.93,93,25,2.68,RU,1709754387
190,soro,21.2881,86.6858,21.94,76,25,2.16,IN,1709754387
191,tanumah,27.1,44.1333,18.79,25,10,7.12,SA,1709754388
192,vorkuta,67.5,64.0,-18.19,97,100,6.31,RU,1709754388
193,bezhetsk,57.7851,36.6965,-3.71,96,100,1.87,RU,1709754388
194,praia,14.9215,-23.5087,24.3,60,20,8.23,CV,1709754389
195,urambo,-5.0667,32.05,18.57,97,96,0.72,TZ,1709754389
196,tazovsky,67.4667,78.7,-16.76,96,99,5.01,RU,1709754389
197,ancud,-41.8697,-73.8203,13.93,60,36,4.22,CL,1709754389
198,west island,-12.1568,96.8225,26.99,94,88,6.69,CC,1709754390
199,minot air force base,48.4209,-101.3391,-9.9,79,100,6.17,US,1709754390
200,kish,26.5578,54.0194,20.15,52,0,3.09,IR,1709754390
201,madimba,-10.4,40.3333,27.62,94,20,2.57,TZ,1709754390
202,the dalles,45.5946,-121.1787,8.8,65,0,1.34,US,1709754391
203,inhambane,-23.865,35.3833,27.99,88,40,1.54,MZ,1709754391
204,geraldton,-28.7667,114.6,29.23,51,0,9.26,AU,1709754391
205,dellys,36.9172,3.9131,13.49,79,0,5.11,DZ,1709754392
206,mount gambier,-37.8333,140.7667,11.4,92,12,3.08,AU,1709754392
207,marsh harbour,26.5412,-77.0636,23.94,78,100,7.2,BS,1709754392
208,tzucacab,20.0667,-89.05,39.25,27,20,0.32,MX,1709754393
209,viedma,-40.8135,-62.9967,20.38,33,97,6.89,AR,1709754394
210,lepsy,46.235,78.9456,-8.28,88,100,1.29,KZ,1709754394
211,zliten,32.4674,14.5687,15.32,63,100,3.74,LY,1709754395
212,nemuro,43.3236,145.575,-3.8,68,2,7.06,JP,1709754395
213,abancay,-13.6339,-72.8814,21.68,62,97,2.77,PE,1709754395
214,ganta,7.3022,-8.5308,27.66,50,100,0.45,LR,1709754396
215,la'ie,21.6477,-157.9253,23.98,72,10,5.36,US,1709754396
216,mana,5.6592,-53.7767,28.03,75,81,5.54,GF,1709754396
217,callao,-12.0667,-77.15,27.16,65,20,5.66,PE,1709754397
218,las khorey,11.1595,48.1967,28.04,72,12,2.82,SO,1709754397
219,lubao,14.9167,120.55,25.84,90,49,1.57,PH,1709754397
220,ladysmith,48.9829,-123.8194,3.97,74,75,2.06,CA,1709754308
221,taitung city,22.7583,121.1444,19.17,86,96,6.78,TW,1709754398
222,udachny,66.4167,112.4,-29.79,100,100,2.17,RU,1709754398
223,strathalbyn,-35.2667,138.9,19.84,95,83,3.23,AU,1709754398
224,okhotsk,59.3833,143.3,-11.17,96,100,1.54,RU,1709754398
225,ulanhot,46.0833,122.0833,-7.41,61,100,2.81,CN,1709754398
226,ar raqqah,35.95,39.0167,13.12,70,57,4.57,SY,1709754399
227,antsiranana,-12.2787,49.2917,25.17,92,24,3.2,MG,1709754399
228,cadale,2.7603,46.3222,28.23,77,5,5.73,SO,1709754399
229,christchurch,-43.5333,172.6333,15.51,85,97,3.6,NZ,1709754399
230,vychegodskiy,61.247,46.8984,-2.77,97,100,1.86,RU,1709754400
231,pontes e lacerda,-15.2261,-59.3353,29.49,71,89,0.65,BR,1709754400
232,olyokminsk,60.3736,120.4264,-30.11,100,100,0.21,RU,1709754400
233,kuusamo,65.9667,29.1833,-1.98,93,0,2.06,FI,1709754400
234,kerikeri,-35.2268,173.9474,14.95,91,97,1.39,NZ,1709754401
235,puning,23.3107,116.1687,16.6,81,100,1.66,CN,1709754401
236,kargasok,59.0556,80.8572,-23.6,100,56,1.45,RU,1709754402
237,nuuk,64.1835,-51.7216,-9.66,79,75,6.69,GL,1709754357
238,lerwick,60.1545,-1.1494,6.0,77,100,8.59,GB,1709754403
239,kudus,-6.8048,110.8405,25.51,93,100,0.97,ID,1709754403
240,margaret river,-33.95,115.0667,18.49,61,5,4.85,AU,1709754403
241,happy valley-goose bay,53.3168,-60.3315,-2.83,39,40,6.69,CA,1709754403
242,carmen,18.6333,-91.8333,30.02,62,0,3.09,MX,1709754337
243,nanlong,31.3533,106.0631,9.02,82,100,1.63,CN,1709754404
244,vodnyy,63.5046,53.4095,-7.04,97,100,2.61,RU,1709754404
245,belaya kholunitsa,58.84,50.8528,-16.71,100,82,0.4,RU,1709754404
246,mbandaka,0.0487,18.2603,22.71,94,99,2.67,CD,1709754404
247,marau,-28.4492,-52.2,26.97,61,3,1.24,BR,1709754405
248,crane,31.3974,-102.3501,24.72,18,94,3.69,US,1709754405
249,rio grande,-32.035,-52.0986,24.06,57,0,4.66,BR,1709754405
250,sabang,5.8933,95.3214,28.18,71,100,3.14,ID,1709754405
251,anadyr,64.75,177.4833,-15.72,85,0,3.0,RU,1709754406
252,vilyuysk,63.7553,121.6247,-30.0,100,100,1.34,RU,1709754406
253,opuwo,-18.0607,13.84,22.4,26,50,4.15,,1709754406
254,eyl,7.9803,49.8164,26.24,83,0,4.75,SO,1709754406
255,chom thong,18.4174,98.6743,25.05,38,27,1.19,TH,1709754407
256,san patricio,28.017,-97.5169,28.42,51,78,6.37,US,1709754407
257,hluti,-27.2167,31.6167,19.16,87,51,1.24,SZ,1709754407
258,flying fish cove,-10.4217,105.6791,25.82,100,100,2.06,CX,1709754407
259,port saint john's,-31.6229,29.5448,21.7,73,50,2.11,ZA,1709754408
260,port alfred,-33.5906,26.891,20.1,86,93,0.89,ZA,1709754408
261,gandajika,-6.75,23.95,20.97,91,11,1.5,CD,1709754408
262,glencoe,-28.1783,30.147,17.24,89,88,2.8,ZA,1709754408
263,hermanus,-34.4187,19.2345,17.11,72,100,3.47,ZA,1709754409
264,pitimbu,-7.4706,-34.8086,30.33,73,95,3.82,BR,1709754409
265,haiku-pauwela,20.9219,-156.3051,22.8,88,40,6.69,US,1709754409
266,nefteyugansk,61.0998,72.6035,-22.8,99,35,3.58,RU,1709754410
267,tegueste,28.5167,-16.3167,17.27,87,40,9.26,ES,1709754410
268,carloforte,39.145,8.3058,12.76,68,1,3.76,IT,1709754410
269,port lincoln,-34.7333,135.8667,18.15,87,100,7.55,AU,1709754410
270,arraial do cabo,-22.9661,-42.0278,27.98,83,75,4.12,BR,1709754410
271,newman,37.3138,-121.0208,17.91,70,100,0.89,US,1709754411
272,sinop,41.7711,34.8709,4.77,95,100,2.66,TR,1709754411
273,magadan,59.5667,150.8,-16.65,80,95,3.31,RU,1709754411
274,minas de marcona,-15.2119,-75.1103,23.72,60,88,6.61,PE,1709754411
275,usinsk,65.9939,57.5281,-12.0,96,100,6.04,RU,1709754412
276,pacocha,-17.5833,-71.3333,26.08,65,40,4.12,PE,1709754412
277,klyuchi,52.2667,79.1667,-10.32,91,84,3.99,RU,1709754412
278,taghazout,30.5426,-9.7112,16.43,63,100,2.18,MA,1709754413
279,smithers,54.7804,-127.1743,-10.82,67,100,2.57,CA,1709754413
280,ried im innkreis,48.2112,13.4886,7.84,82,100,1.79,AT,1709754414
281,limon,10.0,-83.0333,31.14,66,0,3.6,CR,1709754414
282,kabalo,-6.05,26.9167,22.06,95,86,1.55,CD,1709754414
283,flin flon,54.7682,-101.865,-11.09,57,40,3.09,CA,1709754414
284,halifax,44.6453,-63.5724,11.27,89,75,3.09,CA,1709754148
285,zhob,31.3411,69.4481,5.2,90,99,1.32,PK,1709754415
286,saipan,15.1355,145.701,24.39,88,20,2.57,MP,1709754415
287,st. john's,47.5649,-52.7093,5.71,96,100,6.17,CA,1709754249
288,rikaze,29.25,88.8833,-1.15,23,0,2.05,CN,1709754416
289,altai,46.3722,96.2583,-13.25,39,5,1.1,MN,1709754416
290,ad dabbah,18.05,30.95,23.92,9,88,5.31,SD,1709754416
291,yanchep,-31.55,115.6833,24.07,58,0,4.52,AU,1709754416
292,chui,-33.6971,-53.4616,21.14,48,0,4.3,UY,1709754417
293,soio,-6.1349,12.3689,28.04,85,13,4.09,AO,1709754417
294,todos santos,23.45,-110.2167,30.17,71,100,4.17,MX,1709754417
295,codrington,-38.2667,141.9667,12.97,89,95,3.47,AU,1709754418
296,doka,13.5167,35.7667,30.77,13,87,4.66,SD,1709754418
297,myeik,12.4333,98.6,23.68,85,50,1.04,MM,1709754419
298,dudinka,69.4058,86.1778,-15.18,92,99,4.02,RU,1709754419
299,kavieng,-2.5744,150.7967,27.42,83,100,1.48,PG,1709754419
300,hasaki,35.7333,140.8333,4.22,58,100,10.06,JP,1709754420
301,rio san juan,19.6439,-70.0763,26.78,68,0,7.01,DO,1709754420
302,kolokani,13.5728,-8.0339,30.51,10,49,3.41,ML,1709754421
303,east london,-33.0153,27.9116,21.48,80,100,3.85,ZA,1709754421
304,roanoke,37.271,-79.9414,16.06,93,100,1.54,US,1709754267
305,freetown,8.484,-13.2299,28.84,70,2,3.6,SL,1709754422
306,novodvinsk,64.4165,40.8122,-2.14,97,100,3.06,RU,1709754422
307,gisborne,-38.6533,178.0042,13.8,67,96,2.26,NZ,1709754423
308,bosobolo,4.1833,19.9,27.4,59,47,2.18,CD,1709754423
309,chilliwack,49.1747,-121.9443,4.43,69,37,3.6,CA,1709754423
310,fale old settlement,-9.3852,-171.2468,28.76,75,10,2.94,TK,1709754423
311,la passe,45.5549,-0.8967,9.45,92,49,3.92,FR,1709754424
312,sorong,-0.8833,131.25,27.44,85,75,5.9,ID,1709754424
313,chaman,30.9236,66.4512,4.7,89,25,0.58,PK,1709754424
314,barreiro do jaiba,-15.6167,-43.6,31.08,55,19,1.53,BR,1709754424
315,selogiri,-7.7833,110.8667,25.56,92,100,0.45,ID,1709754425
316,itoman,26.1247,127.6694,19.43,72,75,6.69,JP,1709754425
317,formosa do rio preto,-11.0483,-45.1931,27.52,80,93,1.56,BR,1709754425
318,porto recanati,43.4365,13.6613,7.16,42,100,1.29,IT,1709754425
319,talcahuano,-36.7167,-73.1167,19.82,52,0,7.2,CL,1709754426
320,vila velha,-20.3297,-40.2925,27.97,87,40,4.12,BR,1709754426
321,merizo village,13.2658,144.6691,25.85,89,50,6.31,GU,1709754426
322,ulsteinvik,62.3432,5.8487,4.86,69,53,2.24,NO,1709754426
323,daira din panah,30.5702,70.9361,13.22,43,39,4.07,PK,1709754427
324,alexandria,31.2156,29.9553,16.3,64,3,6.21,EG,1709753918
325,bra,44.703,7.8556,8.97,65,3,1.81,IT,1709754427
326,nova sintra,14.8667,-24.7167,19.55,73,0,9.41,CV,1709754428
327,qaisumah,28.3112,46.1273,16.98,31,20,4.12,SA,1709754428
328,kapuskasing,49.4169,-82.4331,0.05,37,0,1.54,CA,1709754428
329,sumbawa besar,-8.5,117.4333,24.96,92,91,1.37,ID,1709754428
330,boa vista,2.8197,-60.6733,34.99,41,40,8.23,BR,1709754429
331,westport,41.1415,-73.3579,10.81,91,100,3.09,US,1709754307
332,taganrog,47.2362,38.8969,1.14,61,100,7.27,RU,1709754429
333,kibaya,-5.3,36.5667,15.43,93,30,1.58,TZ,1709754430
334,carutapera,-1.195,-46.02,28.17,79,100,3.57,BR,1709754430
335,saint-philippe,-21.3585,55.7679,25.77,82,100,5.35,RE,1709754430
336,sarmiento,-45.5882,-69.07,19.82,24,6,8.58,AR,1709754430
337,cestos city,5.46,-9.5828,27.9,86,16,4.51,LR,1709754431
338,hammerfest,70.6634,23.6821,3.25,100,75,6.69,NO,1709754432
339,treasure island,27.7692,-82.769,26.27,78,75,4.63,US,1709754432
340,aromashevo,56.8602,68.6375,-17.84,100,97,0.9,RU,1709754432
341,kashin,57.3592,37.6081,-6.38,94,95,1.66,RU,1709754433
342,socorro,31.6546,-106.3033,22.24,17,75,9.77,US,1709754213
343,bardai,11.65,7.2333,32.83,14,99,1.79,NG,1709754433
344,sao joao da barra,-21.6403,-41.0511,28.05,89,78,4.52,BR,1709754433
345,springs,-26.25,28.4,25.93,68,0,3.2,ZA,1709754434
346,sompeta,18.9333,84.6,26.19,69,89,2.69,IN,1709754434
347,santiago de cao,-7.9589,-79.2392,24.07,83,0,4.12,PE,1709754434
348,strezhevoy,60.7333,77.5889,-23.91,100,88,1.79,RU,1709754434
349,luderitz,-26.6481,15.1594,16.96,76,5,2.14,,1709754435
350,satna,24.5833,80.8333,17.2,24,2,1.95,IN,1709754435
351,whitehorse,60.7161,-135.0538,-8.28,60,75,8.23,CA,1709754435
352,bonito,-21.1211,-56.4819,32.58,46,65,1.57,BR,1709754435
353,tucuma,-0.1833,-50.05,27.84,84,96,3.19,BR,1709754436
354,qamdo,31.1667,97.2333,-5.42,84,100,0.81,CN,1709754436
355,vila franca do campo,37.7167,-25.4333,13.23,66,100,12.08,PT,1709754437
356,as sulayyil,20.4607,45.5779,24.14,30,68,6.75,SA,1709754437
357,kalabo,-14.97,22.6814,22.91,68,29,1.09,ZM,1709754437
358,sinabang,2.4803,96.3801,26.64,84,96,1.5,ID,1709754437
359,narasannapeta,18.4167,84.05,25.1,74,34,1.62,IN,1709754438
360,petropavlovsk-kamchatsky,53.0452,158.6483,-13.64,91,0,5.81,RU,1709754438
361,komsomol'sk,49.0097,33.6455,1.72,68,42,5.46,UA,1709754438
362,likiep,9.8251,169.3107,26.56,78,80,10.3,MH,1709754438
363,inirida,3.8653,-67.9239,34.96,42,100,1.7,CO,1709754439
364,kyabe,9.4515,18.9449,32.51,9,93,2.56,TD,1709754439
365,mont-dore,-22.2833,166.5833,27.78,99,100,4.13,NC,1709754439
366,lata,40.1629,-8.3327,12.73,74,100,2.39,PT,1709754439
367,zintan,31.9223,12.252,12.14,59,100,2.88,LY,1709754440
368,nar'yan-mar,67.6713,53.087,-4.94,95,100,5.36,RU,1709754440
369,touros,-5.1989,-35.4608,27.85,77,100,4.5,BR,1709754149
370,rohru,31.2167,77.75,5.42,67,63,1.6,IN,1709754442
371,kolonia town,6.964,158.206,28.0,74,100,3.09,FM,1709754442
372,hassi messaoud,31.6804,6.0729,18.92,32,0,2.06,DZ,1709754442
373,inarajan village,13.2736,144.7484,26.08,89,52,6.52,GU,1709754442
374,paulden,34.8856,-112.4682,16.42,33,95,2.68,US,1709754443
375,holualoa,19.6228,-155.9522,22.91,79,100,2.06,US,1709754443
376,naxos,37.1056,25.3764,14.61,75,1,0.89,GR,1709754443
377,luwingu,-10.2621,29.9271,17.91,96,91,1.29,ZM,1709754444
378,el granada,37.5027,-122.4694,16.04,84,40,2.57,US,1709754222
379,fortuna,40.5982,-124.1573,10.52,96,100,4.12,US,1709754098
380,brevard,28.292,-80.7492,29.03,72,75,5.66,US,1709754444
381,naze,28.3667,129.4833,14.51,64,100,7.56,JP,1709754445
382,international falls,48.6011,-93.411,3.1,55,100,4.12,US,1709754445
383,kibale,0.8,31.0667,17.95,82,0,1.69,UG,1709754445
384,kulhudhuffushi,6.6221,73.07,27.97,70,3,4.78,MV,1709754445
385,cabedelo,-6.9811,-34.8339,30.37,78,100,4.1,BR,1709754446
386,tungao,8.7772,125.5719,21.34,97,100,0.86,PH,1709754446
387,rudbar,30.15,62.6,13.8,49,0,3.61,AF,1709754446
388,fraserburgh,57.6874,-2.0184,5.24,84,47,8.1,GB,1709754447
389,khash,28.2211,61.2158,10.27,54,0,1.57,IR,1709754447
390,mutare,-18.9707,32.6709,22.15,67,99,2.64,ZW,1709754447
391,sitia,35.2,26.0986,14.99,69,0,5.62,GR,1709754448
392,riviere-du-loup,47.8304,-69.5342,7.15,39,92,3.09,CA,1709754448
393,coquimbo,-29.9533,-71.3436,18.85,82,100,4.63,CL,1709754448
394,ouadda,8.0777,22.4007,24.94,11,93,2.45,CF,1709754448
395,nabire,-3.3667,135.4833,24.81,93,92,0.82,ID,1709754449
396,plouzane,48.3833,-4.6167,9.18,90,0,4.12,FR,1709754449
397,caleta olivia,-46.4393,-67.5281,19.74,26,1,3.61,AR,1709754449
398,chibougamau,49.9168,-74.3659,-2.21,46,20,4.63,CA,1709754449
399,carbonear,47.7332,-53.2148,5.97,97,100,4.47,CA,1709754450
400,cidreira,-30.1811,-50.2056,22.7,62,13,4.02,BR,1709754206
401,la ronge,55.1001,-105.2842,-15.86,66,75,2.06,CA,1709754450
402,fada n'gourma,12.0622,0.3578,33.77,8,96,2.84,BF,1709754450
403,zaigrayevo,51.8336,108.2703,-18.25,99,49,0.89,RU,1709754450
404,tamalous,36.8376,6.6402,10.34,83,1,1.64,DZ,1709754451
405,natal,-5.795,-35.2094,31.36,84,75,7.2,BR,1709754451
406,itamaraca,-7.7478,-34.8256,30.03,72,39,3.15,BR,1709754451
407,alesund,62.4723,6.1549,4.86,86,0,1.54,NO,1709754451
408,bolgar,54.95,49.0667,-16.42,97,29,2.1,RU,1709754452
409,celaya,20.5167,-100.8167,27.64,10,33,4.01,MX,1709754452
410,yaren,-0.5472,166.916,27.98,81,100,4.81,NR,1709754452
411,salinopolis,-0.6136,-47.3561,28.5,77,97,4.6,BR,1709754452
412,tofol,5.3248,163.0078,28.09,76,98,9.36,FM,1709754453
413,uchiza,-8.4592,-76.4633,27.34,81,100,1.07,PE,1709754453
414,smirnykh,49.75,142.8333,-18.94,98,37,2.04,RU,1709754453
415,santa cecilia,-26.9608,-50.4269,16.7,93,100,1.85,BR,1709754230
416,saldanha,-33.0117,17.9442,18.03,77,97,3.35,ZA,1709754454
417,pukchil-lodongjagu,40.2019,125.7483,-2.21,58,12,0.88,KP,1709754454
418,lorengau,-2.0226,147.2712,27.34,85,93,1.42,PG,1709754454
419,point pedro,9.8167,80.2333,25.21,77,8,4.66,LK,1709754455
420,howard springs,-12.497,131.047,25.95,96,100,0.97,AU,1709754455
421,walvis bay,-22.9575,14.5053,18.53,82,0,6.07,,1709754456
422,rabo de peixe,37.8,-25.5833,12.73,62,40,8.23,PT,1709754456
423,dunedin,-45.8742,170.5036,14.89,73,75,0.45,NZ,1709754370
424,vershino-darasunskiy,52.35,115.5167,-20.31,98,13,1.82,RU,1709754456
425,al kharijah,25.4514,30.5464,18.94,29,1,4.18,EG,1709754457
426,hilo,19.7297,-155.09,22.93,90,100,2.57,US,1709754457
427,fort st. john,56.2499,-120.8529,-11.06,57,75,2.06,CA,1709754457
428,gore,-46.1028,168.9436,10.18,88,14,1.69,NZ,1709754457
429,gelendost,38.1208,31.0153,5.83,80,57,1.38,TR,1709754457
430,tindouf,27.6711,-8.1474,26.25,10,0,1.03,DZ,1709754458
431,port hedland,-20.3167,118.5667,29.03,79,75,3.09,AU,1709753975
432,grand rapids,42.9634,-85.6681,12.08,59,40,7.2,US,1709754360
433,shimoda,34.6667,138.95,5.06,85,100,7.21,JP,1709754458
434,meadow lakes,61.6247,-149.6011,0.73,61,40,5.14,US,1709754459
435,zhangye,38.9342,100.4517,-2.29,37,0,2.77,CN,1709754459
436,igarka,67.4667,86.5833,-14.46,92,98,6.03,RU,1709754459
437,autazes,-3.5797,-59.1306,33.1,54,96,1.51,BR,1709754460
438,kyshtovka,56.555,76.6271,-9.25,96,100,2.68,RU,1709754460
439,siwa oasis,29.2041,25.5195,17.05,39,0,3.15,EG,1709754460
440,tolanaro,-25.0319,46.9987,24.04,94,75,7.2,MG,1709754461
441,balkashino,52.5167,68.7667,-9.78,96,100,1.82,KZ,1709754461
442,ressano garcia,-25.442,31.9913,23.45,82,10,3.37,MZ,1709754461
443,bamboo flat,11.7,92.7167,24.05,83,100,0.51,IN,1709754461
444,jining,35.405,116.5814,3.08,54,96,1.84,CN,1709754462
445,champerico,14.3,-91.9167,34.3,61,4,6.05,GT,1709754462
446,barra de santo antonio,-9.4047,-35.5072,31.6,74,81,4.67,BR,1709754462
447,klaksvik,62.2266,-6.589,6.51,84,98,10.46,FO,1709754462
448,greymouth,-42.4667,171.2,12.77,82,97,1.28,NZ,1709754462
449,port elizabeth,-33.918,25.5701,20.05,83,75,2.24,ZA,1709754463
450,isla mujeres,21.2311,-86.731,30.09,71,13,7.22,MX,1709754464
451,nizhnyaya tavda,57.6731,66.1725,-19.48,100,83,1.47,RU,1709754464
452,la junta,37.985,-103.5438,15.1,34,0,2.06,US,1709754464
453,quepos,9.4236,-84.1652,30.54,67,77,3.23,CR,1709754465
454,puerto real,36.5282,-6.1901,13.09,82,0,0.0,ES,1709754465
455,iwanai,42.9744,140.5089,-2.31,61,100,3.84,JP,1709754465
456,benghazi,32.1167,20.0667,15.87,66,100,5.08,LY,1709754465
457,novyy urengoy,66.0833,76.6333,-16.59,95,100,5.44,RU,1709754466
458,maxixe,-23.8597,35.3472,27.9,88,40,1.54,MZ,1709754466
459,malax,62.9423,21.5731,-2.79,96,100,1.54,FI,1709754466
460,balezino,57.9796,53.0106,-17.78,100,93,1.53,RU,1709754467
461,sola,-13.8833,167.55,26.97,82,100,6.91,VU,1709754467
462,hami,42.8,93.45,0.01,24,0,3.25,CN,1709754467
463,vernal,40.4555,-109.5287,8.7,47,0,2.57,US,1709754352
464,oodweyne,9.4092,45.064,25.56,37,7,3.43,SO,1709754468
465,korla,41.7597,86.1469,1.37,50,5,0.84,CN,1709754468
466,mizhirah,16.8261,42.7333,28.91,79,0,5.14,SA,1709754468
467,nizhnesortymskiy,62.4397,71.7603,-20.85,96,100,5.22,RU,1709754468
468,broken hill,-31.95,141.4333,24.15,24,98,4.62,AU,1709754469
469,nikolayevsk-on-amure,53.1406,140.73,-19.48,100,96,1.35,RU,1709754469
470,saint-louis,16.3333,-15.0,35.8,14,1,7.28,SN,1709754469
471,poyarkovo,49.6,128.6833,-24.7,100,90,0.87,RU,1709754470
472,khanty-mansiysk,61.0042,69.0019,-22.94,70,0,1.0,RU,1709754470
473,tuensang,26.2833,94.8333,11.46,48,0,1.26,IN,1709754471
474,mar del plata,-38.0023,-57.5575,25.01,47,0,5.14,AR,1709754454
475,knyaze-volkonskoye,48.4642,135.4567,-12.81,100,34,1.55,RU,1709754472
476,ono,34.85,134.9333,5.71,63,96,4.77,JP,1709754472
477,turi,40.9173,17.0212,11.69,64,20,5.14,IT,1709754472
478,akureyri,65.6835,-18.0878,6.96,65,40,2.06,IS,1709754473
479,la rioja,42.25,-2.5,3.88,61,88,2.55,ES,1709754473
480,orkney,-26.9802,26.6727,22.43,20,0,3.04,ZA,1709754474
481,praia da vitoria,38.7333,-27.0667,12.64,76,75,14.26,PT,1709754475
482,kralendijk,12.15,-68.2667,29.99,70,75,7.72,BQ,1709754475
483,iquique,-20.2208,-70.1431,25.02,69,79,2.89,CL,1709754475
484,n'zeto,-7.2312,12.8666,27.43,87,58,3.6,AO,1709754476
485,kalmunai,7.4167,81.8167,24.68,83,100,1.62,LK,1709754476
486,boyette,27.8175,-82.2226,27.86,77,100,3.58,US,1709754477
487,mhangura,-16.8939,30.1683,21.15,75,100,1.65,ZW,1709754478
488,ko pha ngan,9.7578,100.0291,26.15,70,100,2.59,TH,1709754478
489,pariaman,-0.619,100.12,27.03,93,100,1.51,ID,1709754479
490,karimpur,23.9667,88.6167,19.1,24,1,2.87,IN,1709754479
491,ploneour-lanvern,47.9,-4.2833,10.18,93,100,4.12,FR,1709754479
492,beaufort west,-32.3567,22.583,22.44,24,7,1.2,ZA,1709754479
493,bodo,67.28,14.405,2.1,78,0,3.6,NO,1709754480
494,chegdomyn,51.1167,133.0167,-24.19,100,100,0.28,RU,1709754480
495,numata,36.6333,139.05,1.74,52,85,3.07,JP,1709754480
496,macau,22.2006,113.5461,17.89,82,40,8.23,MO,1709754481
497,fukuecho,32.6881,128.8419,11.38,64,99,7.35,JP,1709754481
498,yorosso,12.3536,-4.7761,31.35,9,50,2.54,ML,1709754481
499,laguna,38.421,-121.4238,17.38,64,0,0.89,US,1709754481
500,roodepoort,-26.1625,27.8725,25.22,56,0,1.3,ZA,1709754482
501,ghat,24.9647,10.1728,21.77,20,1,6.49,LY,1709754482
502,luanda,-8.8368,13.2343,28.0,89,20,4.12,AO,1709753951
503,toliara,-23.35,43.6667,25.47,93,100,5.14,MG,1709754482
504,remire-montjoly,4.9167,-52.2667,30.02,70,75,5.66,GF,1709754482
505,pires do rio,-17.2997,-48.2794,28.44,59,91,1.97,BR,1709754483
506,saki,8.6667,3.3833,29.33,48,100,2.99,NG,1709754483
507,vandalia,39.8906,-84.1988,9.88,95,100,7.2,US,1709754483
508,el calafate,-50.3408,-72.2768,11.87,51,95,3.65,AR,1709754484
509,kikwit,-5.041,18.8162,25.91,72,10,1.02,CD,1709754484
510,chany,55.3121,76.7647,-8.15,96,100,2.14,RU,1709754484
511,bugana,7.9992,7.5836,34.24,35,100,2.43,NG,1709754485
512,bacalar,18.6667,-88.3833,33.32,47,40,2.05,MX,1709754485
513,varena,54.2167,24.5667,-0.73,74,0,2.2,LT,1709754485
514,cole harbour,44.6724,-63.4751,10.98,89,75,3.09,CA,1709754485
515,baise city,23.8997,106.6133,15.42,79,38,1.19,CN,1709754486
516,port douglas,-16.4833,145.4667,25.66,87,74,3.95,AU,1709754486
517,basse-terre,16.1667,-61.6667,26.99,61,100,6.69,GP,1709754486
518,labin,45.095,14.1197,7.96,87,100,2.42,HR,1709754487
519,kemijarvi,66.7131,27.4306,-6.93,98,96,1.6,FI,1709754487
520,nova vicosa,-17.8919,-39.3719,28.7,70,9,5.74,BR,1709754487
521,ngala,12.3377,14.1805,33.62,19,100,4.12,NG,1709754488
522,san juan de miraflores,-12.1629,-76.9635,26.29,70,93,4.5,PE,1709754488
523,salalah,17.0151,54.0924,25.91,72,0,1.43,OM,1709754488
524,bom jesus,-9.0744,-44.3586,29.27,64,90,2.72,BR,1709754489
525,fort bragg,35.139,-79.006,16.08,93,100,3.09,US,1709754489
526,neiafu,-18.65,-173.9833,27.38,83,20,1.03,TO,1709754489
527,hirara,24.8,125.2833,20.15,77,100,9.26,JP,1709754490
528,chiquinquira,5.6164,-73.8175,20.57,52,63,0.4,CO,1709754490
529,port-cartier,50.0334,-66.8654,6.12,71,15,3.67,CA,1709754490
530,san jose de jachal,-30.2406,-68.7469,29.49,34,0,4.42,AR,1709754490
531,palikir - national government center,6.9248,158.1611,27.41,74,100,3.09,FM,1709754460
532,corbeni,45.3,24.65,4.1,85,100,1.47,RO,1709754491
533,jijiga,9.35,42.8,22.49,37,22,3.96,ET,1709754491
534,cabo san lucas,22.8909,-109.9124,27.01,41,40,2.06,MX,1709754491
535,edirne,41.6772,26.556,6.56,81,99,3.51,TR,1709754491
536,nesebar,42.7833,27.7333,6.49,70,38,1.11,BG,1709754492
537,immingham,53.6124,-0.2222,8.13,52,40,3.09,GB,1709754492
538,prineville,44.2999,-120.8345,4.62,56,0,1.34,US,1709754493
539,tefe,-3.3542,-64.7114,34.06,55,40,3.6,BR,1709754493
540,bama,11.5221,13.6856,32.52,13,100,4.01,NG,1709754493
541,pierre,44.3683,-100.351,1.51,69,100,10.29,US,1709754494
542,manokwari,-0.8667,134.0833,26.25,83,92,1.42,ID,1709754494
543,taungoo,18.9333,96.4333,20.55,36,96,0.87,MM,1709754495
544,castaic,34.4889,-118.6229,15.73,64,97,0.89,US,1709754495
545,rawson,-43.3002,-65.1023,19.21,29,0,3.08,AR,1709754496
546,mawu,29.5923,107.3139,8.55,89,100,1.1,CN,1709754496
547,chita,52.0333,113.55,-16.06,66,57,2.0,RU,1709754289
548,isna,25.2934,32.554,23.01,29,2,5.6,EG,1709754496
549,kailua-kona,19.6406,-155.9956,24.98,78,100,2.06,US,1709754497
550,valjevo,44.2751,19.8982,8.22,77,100,0.92,RS,1709754497
551,morehead city,34.7229,-76.726,18.34,88,100,6.26,US,1709754278
552,luena,-11.7833,19.9167,24.1,73,63,1.03,AO,1709754497
553,faya-largeau,17.9257,19.1043,28.69,9,1,7.01,TD,1709754498
554,zalingei,12.9096,23.4741,27.88,10,70,6.0,SD,1709754498
555,wamba,8.9333,8.6,31.67,37,100,0.98,NG,1709754499
556,taoudenni,22.6783,-3.9836,25.12,11,0,4.68,ML,1709754499
557,myrhorod,49.9685,33.6089,-0.73,79,13,5.62,UA,1709754499
558,shenjiamen,29.9576,122.298,5.79,82,8,5.91,CN,1709754500
559,ntoum,0.3833,9.7833,23.23,91,97,1.81,GA,1709754500
560,xining,36.6167,101.7667,-6.44,78,19,0.89,CN,1709754500
561,samus',56.7475,84.6992,-4.08,94,100,3.48,RU,1709754500
562,joshua,32.4615,-97.3881,25.66,65,0,2.06,US,1709754500
563,leava,-14.3,-178.1667,28.47,78,52,6.36,WF,1709754501
564,sotik post,-0.7813,35.3416,14.66,94,74,1.1,KE,1709754501
565,waingapu,-9.6567,120.2641,27.06,85,99,2.22,ID,1709754501
566,bandarbeyla,9.4942,50.8122,26.43,80,3,3.71,SO,1709754342
567,pyt-yakh,60.7499,72.8582,-22.97,100,73,2.12,RU,1709754502
568,bathsheba,13.2167,-59.5167,29.34,61,20,7.72,BB,1709754502
569,murakami,38.2333,139.4833,3.94,73,100,2.38,JP,1709754502
570,yurimaguas,-5.9,-76.0833,27.09,89,75,2.06,PE,1709754502
571,paramonga,-10.6667,-77.8333,25.75,70,94,5.04,PE,1709754503
572,hadibu,12.65,54.0333,26.84,80,86,3.21,YE,1709754503
573,betare oya,5.6,14.0833,24.09,78,100,1.71,CM,1709754503
574,puente alto,-33.6167,-70.5833,31.52,26,0,3.6,CL,1709754503
575,tazacorte,28.629,-17.9293,18.54,68,0,5.14,ES,1709754503
576,zeya,53.75,127.2667,-20.29,94,87,1.54,RU,1709754504
577,nyurba,63.2842,118.3319,-31.27,100,100,1.37,RU,1709754504
578,berbera,10.4396,45.0143,27.88,77,14,1.41,SO,1709754505
579,mahanoro,-19.9,48.8,25.78,91,100,1.9,MG,1709754505
580,sault ste. marie,46.5168,-84.3333,10.16,35,0,5.14,CA,1709754405
581,chistyye bory,58.3647,41.6278,-4.09,98,100,1.35,RU,1709754506
582,barakani,-12.1356,44.4317,28.01,79,99,2.4,KM,1709754506
583,kolyvan',55.3053,82.7391,-5.21,94,100,4.15,RU,1709754506
584,playa del ingles,27.7567,-15.5787,18.86,70,59,5.34,ES,1709754506
585,montevideo,-34.8335,-56.1674,25.01,36,0,5.14,UY,1709754507
586,nelson bay,-32.7167,152.15,21.11,93,89,2.24,AU,1709754507
587,bertioga,-23.8544,-46.1386,24.0,94,100,2.06,BR,1709754507
588,maya,11.2743,124.0579,26.05,79,100,5.79,PH,1709754507
589,san lorenzo,-25.3333,-57.5333,33.66,41,40,2.24,PY,1709754145
590,santa elena de uairen,4.6167,-61.1333,28.69,47,99,1.39,VE,1709754508
591,axim,4.8699,-2.2405,27.38,88,100,3.37,GH,1709754508
592,bocas del toro,9.3333,-82.25,28.92,71,31,3.44,PA,1709754508
593,umba,66.6871,34.3429,-4.97,97,100,1.64,RU,1709754509
